[{"name":"Tweed Group","slug":8,"day":2,"time":"19:30","location":"St Andrews Church","notes":"","types":["C"],"updated":"2016-05-06 15:38:25","address":"55 Victoria St N","city":"Tweed","postal_code":"","country":"CA","longitude":-77.3114402,"latitude":44.4759824},{"name":"Consecon Discussion Group","slug":1,"day":2,"time":"19:30","location":"Consecon United Church","notes":"","types":["C","D"],"updated":"2017-03-21 22:57:25","address":"224 Mill St","city":"Consecon","postal_code":"","country":"CA","longitude":-77.5211386,"latitude":43.9970273},{"name":"Lennox Group","slug":22,"day":0,"time":"20:00","location":"Trinity United Church","notes":"","types":["O"],"updated":"2015-03-23 22:36:42","address":"25 Bridge St E.","city":"Napanee","postal_code":null,"country":"CA","longitude":-76.9506814,"latitude":44.2491869},{"name":"Friday Afternoon Meeting","slug":31,"day":5,"time":"12:30","location":"Christ Church","notes":"","types":["C"],"updated":"2015-03-28 04:20:11","address":"39 Everett St","city":"Belleville","postal_code":"","country":"CA","longitude":-77.3877565,"latitude":44.164703},{"name":"Getting Better Meeting","slug":37,"day":0,"time":"09:00","location":"Moira Hall","notes":"","types":["C","X"],"updated":"2015-03-23 22:30:21","address":"29 Carson Rd","city":"Centre Hastings","postal_code":null,"country":"CA","longitude":-77.3986763,"latitude":44.3616666},{"name":"Picton New Life Group","slug":20,"day":0,"time":"10:00","location":"Masonic Hall","notes":"","types":["O","SP","X"],"updated":"2015-03-23 22:31:37","address":"13251 Loyalist Pkwy","city":"Picton","postal_code":null,"country":"CA","longitude":-77.1608685,"latitude":44.0002451},{"name":"New Hope Group","slug":23,"day":0,"time":"20:00","location":"Engineers Hall","notes":"","types":["C"],"updated":"2015-03-23 22:35:37","address":"43 Pine St","city":"Belleville","postal_code":null,"country":"CA","longitude":-77.3746974,"latitude":44.1728345},{"name":"Sunday Night Men's Meeting","slug":40,"day":0,"time":"20:00","location":"Christ Church","notes":"","types":["C"],"updated":"2015-03-23 22:36:15","address":"39 Everett St","city":"Belleville","postal_code":null,"country":"CA","longitude":-77.3877565,"latitude":44.164703},{"name":"Happy Destiny Group","slug":19,"day":0,"time":"10:00","location":"Foster Ward Community Centre","notes":"","types":["O","X"],"updated":"2015-03-23 22:37:30","address":"75 St Paul St","city":"Belleville","postal_code":null,"country":"CA","longitude":-77.3748949,"latitude":44.1593231},{"name":"Read AA","slug":6,"day":1,"time":"20:00","location":"St Mary's School","notes":"","types":["O","X"],"updated":"2015-09-05 22:23:18","address":"1285 Read Rd","city":"Read","postal_code":"","country":"CA","longitude":-77.204577,"latitude":44.311187},{"name":"Belleville Sunday Morning","slug":18,"day":0,"time":"10:00","location":"Engineers Hall","notes":"","types":["O","SP"],"updated":"2015-03-23 22:38:38","address":"43 Pine St","city":"Belleville","postal_code":null,"country":"CA","longitude":-77.3746974,"latitude":44.1728345},{"name":"Wellington Big Book Group","slug":3,"day":1,"time":"19:30","location":"United Church Hall","notes":"","types":["C","B"],"updated":"2015-03-28 03:28:33","address":"243 Main St","city":"Wellington","postal_code":"K0K 1G0","country":"CA","longitude":-77.3469054,"latitude":43.9518266},{"name":"Women Living Sober","slug":24,"day":1,"time":"19:30","location":"St. Columba Church","notes":"","types":["C"],"updated":"2015-03-28 03:29:56","address":"520 Bridge St E \u0026 Farley","city":"Belleville","postal_code":"","country":"CA","longitude":-77.3506559,"latitude":44.1714204},{"name":"Foxboro Friendship Group","slug":4,"day":1,"time":"20:00","location":"United Church","notes":"","types":["O","SP","X"],"updated":"2015-03-28 03:30:34","address":"458 Ashley St.","city":"Foxboro","postal_code":"","country":"CA","longitude":-77.4343608,"latitude":44.2455232},{"name":"Skyway Group","slug":14,"day":5,"time":"20:30","location":"United Church","notes":"","types":["O","SP","X"],"updated":"2015-03-28 04:24:13","address":"Fourth \u0026 Thomas St","city":"Deseronto","postal_code":"","country":"CA","longitude":-77.0460444,"latitude":44.1971876},{"name":"Awareness Group","slug":25,"day":2,"time":"13:00","location":"Christ Church","notes":"","types":["C"],"updated":"2015-03-28 03:33:17","address":"39 Everett St","city":"Belleville","postal_code":"","country":"CA","longitude":-77.3877565,"latitude":44.164703},{"name":"Read Group","slug":5,"day":1,"time":"20:00","location":"All Saints Church","notes":"","types":["O","X"],"updated":"2015-03-28 03:31:18","address":"1295 Ridge Rd E.","city":"Mohawk Territory","postal_code":"","country":"CA","longitude":-77.1607246,"latitude":44.1722163},{"name":"Out of the Fog Group","slug":10,"day":2,"time":"19:30","location":"Grace United Church","notes":"Rear entrance, 2nd floor","types":["O"],"updated":"2016-09-18 22:48:05","address":"150 Robert St","city":"Napanee","postal_code":"","country":"CA","longitude":-76.9530926,"latitude":44.2479817},{"name":"Marysville 12 \u0026 12","slug":41,"day":3,"time":"20:00","location":"Holy Name of Mary School","notes":"","types":["O"],"updated":"2017-07-29 14:06:25","address":"7314 Old Hwy 2","city":"Marysville","postal_code":"","country":"CA","longitude":-77.1400538,"latitude":44.2247038},{"name":"Beaver Lake Group","slug":9,"day":2,"time":"20:30","location":"Tamworth Elementary School","notes":"","types":["O","X"],"updated":"2015-03-28 03:53:55","address":"6668 Wheeler St","city":"Tamworth","postal_code":"","country":"CA","longitude":-76.9909385,"latitude":44.4842039},{"name":"Moira Group","slug":7,"day":2,"time":"20:00","location":"Belleville General Hospital","notes":"Use main entrance","types":["O","X"],"updated":"2016-04-16 00:23:37","address":"265 Dundas St E","city":"Belleville","postal_code":"","country":"CA","longitude":-77.3643232,"latitude":44.1627054},{"name":"Verona Breakfast Meeting","slug":39,"day":0,"time":"10:00","location":"Mom Restaurant","notes":"","types":["O"],"updated":"2017-07-29 14:05:45","address":"6775 Road 38","city":"Verona","postal_code":"","country":"CA","longitude":-76.6927765,"latitude":44.4834381},{"name":"Enterprise 12 \u0026 12 Step","slug":27,"day":3,"time":"20:00","location":"Enterprise Public School","notes":"","types":["C"],"updated":"2015-03-28 04:09:30","address":"76 School St","city":"Enterprise","postal_code":"","country":"CA","longitude":-76.8819047,"latitude":44.4650389},{"name":"Picton 12 \u0026 12 Meeting","slug":28,"day":3,"time":"20:00","location":"Prince Edward County Hospital","notes":"","types":["O","X"],"updated":"2015-03-28 04:10:06","address":"403 Main St E.","city":"Picton","postal_code":"","country":"CA","longitude":-77.1375427,"latitude":44.0158672},{"name":"As Bill Sees It","slug":29,"day":4,"time":"08:30","location":"United Church Hall","notes":"","types":["O"],"updated":"2015-03-28 04:10:49","address":"272 Main St","city":"Bloomfield","postal_code":"","country":"CA","longitude":-77.2279714,"latitude":43.9874185},{"name":"Quinte Group","slug":13,"day":4,"time":"20:00","location":"Eastminster United Church","notes":"Basement","types":["O","X"],"updated":"2015-03-28 04:11:45","address":"432 Bridge St E","city":"Belleville","postal_code":"","country":"CA","longitude":-77.3574273,"latitude":44.1698192},{"name":"Big Book Meeting","slug":30,"day":4,"time":"20:00","location":"Eastminster United Church","notes":"Upstairs","types":["C","X"],"updated":"2015-03-28 04:12:44","address":"432 Bridge St E.","city":"Belleville","postal_code":"","country":"CA","longitude":-77.3574273,"latitude":44.1698192},{"name":"New Direction Discussion","slug":26,"day":3,"time":"19:30","location":"St Andrews Church","notes":"Parking off of Church St","types":["C"],"updated":"2017-05-28 00:24:03","address":"67 Victoria Ave","city":"Belleville","postal_code":"","country":"CA","longitude":-77.3823072,"latitude":44.1671751},{"name":"Stirling Friday Night Group","slug":15,"day":5,"time":"20:00","location":"St Andrews Church","notes":"","types":["O","SP","X"],"updated":"2015-03-28 04:23:24","address":"Mill \u0026 Edward St.","city":"Stirling","postal_code":"","country":"CA","longitude":-77.5460775,"latitude":44.2988094},{"name":"Napanee Big Book Group","slug":12,"day":4,"time":"20:00","location":"Trinity United Church","notes":"","types":["C","B"],"updated":"2015-11-13 15:05:54","address":"25 Bridge St E.","city":"Napanee","postal_code":"","country":"CA","longitude":-76.9506814,"latitude":44.2491869},{"name":"Rebuilders Group","slug":36,"day":6,"time":"18:00","location":"Bath United Church","notes":"","types":["C"],"updated":"2015-03-28 04:25:32","address":"402 Academy St","city":"Bath","postal_code":"","country":"CA","longitude":-76.7794925,"latitude":44.1829106},{"name":"Madoc Group","slug":16,"day":6,"time":"19:30","location":"St Peter's Church","notes":"","types":["C"],"updated":"2015-03-28 04:25:56","address":"115 St Lawrence St W.","city":"Madoc","postal_code":"","country":"CA","longitude":-77.4759829,"latitude":44.5044376},{"name":"Desire Group","slug":17,"day":6,"time":"20:00","location":"Engineers Hall","notes":"","types":["O"],"updated":"2015-03-28 04:26:20","address":"43 Pine St","city":"Belleville","postal_code":"","country":"CA","longitude":-77.3746974,"latitude":44.1728345},{"name":"Cannifton Friday Night","slug":34,"day":5,"time":"20:00","location":"St Mark's United Church","notes":"","types":["O","X"],"updated":"2015-07-10 22:37:13","address":"237 Cannifton Rd N","city":"Cannifton","postal_code":"","country":"CA","longitude":-77.3915905,"latitude":44.2067486},{"name":"Stirling Sunday 12 \u0026 12","slug":38,"day":0,"time":"09:00","location":"Rotary Train Station","notes":"","types":["C"],"updated":"2017-05-27 16:08:49","address":"122 North St","city":"Stirling","postal_code":"","country":"CA","longitude":-77.5491671,"latitude":44.2992634},{"name":"Second Chance Group","slug":35,"day":6,"time":"10:30","location":"Eastminster United Church","notes":"Meetings now moved to the Parlour on the main floor.","types":["C","X"],"updated":"2015-11-13 15:04:33","address":"432 Bridge St E.","city":"Belleville","postal_code":"","country":"CA","longitude":-77.3574273,"latitude":44.1698192},{"name":"Triangle Unity Group","slug":2,"day":2,"time":"20:00","location":"St Columba Presbyterian Church","notes":"","types":["C","ST"],"updated":"2015-11-26 23:08:58","address":"520 Bridge St East","city":"Belleville","postal_code":"","country":"CA","longitude":-77.3502171,"latitude":44.1720804},{"name":"Trenton Group","slug":42,"day":3,"time":"20:00","location":"Trenton United Church","notes":"","types":["O","SP","X"],"updated":"2016-04-16 00:19:57","address":"85 Dundas St","city":"Trenton","postal_code":"","country":"CA","longitude":-77.5701778,"latitude":44.1048726},{"name":"Trenton Group","slug":43,"day":6,"time":"20:00","location":"Trenton United Church","notes":"","types":["O","SP","X"],"updated":"2016-04-16 00:20:49","address":"85 Dundas St","city":"Trenton","postal_code":"","country":"CA","longitude":-77.5701778,"latitude":44.1048726},{"name":"Plug in the Jug Meeting","slug":45,"day":1,"time":"12:00","location":"St Andrew's Presbyterian Church","notes":"","types":["C"],"updated":"2017-04-30 15:10:33","address":"16 Marmora St","city":"Trenton","postal_code":"K8V 2H5","country":"CA","longitude":-77.5717064,"latitude":44.105331},{"name":"Plug in the Jug Meeting","slug":46,"day":2,"time":"12:00","location":"St Andrew's Presbyterian Church","notes":"","types":["C"],"updated":"2017-04-30 15:10:53","address":"16 Marmora St","city":"Trenton","postal_code":"K8V 2H5","country":"CA","longitude":-77.5717064,"latitude":44.105331},{"name":"Plug in the Jug Meeting","slug":47,"day":3,"time":"12:00","location":"St Andrew's Presbyterian Church","notes":"","types":["C"],"updated":"2017-04-30 15:11:10","address":"16 Marmora St","city":"Trenton","postal_code":"K8V 2H5","country":"CA","longitude":-77.5717064,"latitude":44.105331},{"name":"Plug in the Jug Meeting","slug":48,"day":4,"time":"12:00","location":"St Andrew's Presbyterian Church","notes":"","types":["C"],"updated":"2017-04-30 15:11:26","address":"16 Marmora St","city":"Trenton","postal_code":"K8V 2H5","country":"CA","longitude":-77.5717064,"latitude":44.105331},{"name":"Plug in the Jug Meeting","slug":49,"day":5,"time":"12:00","location":"St Andrew's Presbyterian Church","notes":"Meeting is not held on the last Friday of each month","types":["C"],"updated":"2017-04-30 15:11:45","address":"16 Marmora St","city":"Trenton","postal_code":"K8V 2H5","country":"CA","longitude":-77.5717064,"latitude":44.105331},{"name":"One Page at a Time","slug":44,"day":5,"time":"19:30","location":"St Columba Church","notes":"","types":["C","B"],"updated":"2017-05-31 00:25:34","address":"520 Bridge St E \u0026 Farley","city":"Belleville","postal_code":"","country":"CA","longitude":-77.3506559,"latitude":44.1714204}]